[{"lat": 48.6996084, "nom": "\u00c9cole nationale sup\u00e9rieure des industries chimiques", "lng": 6.17949150000004}, {"lat": 48.1141854, "nom": "\u00c9cole sup\u00e9rieure d'ing\u00e9nieurs de Rennes", "lng": -1.63626780000004}, {"lat": 48.6584463, "nom": "\u00c9cole sup\u00e9rieure des sciences et technologies de l'ing\u00e9nieur de Nancy", "lng": 6.18832729999997}, {"lat": 46.1413255, "nom": "Groupe Sup de Co La Rochelle", "lng": -1.15590959999997}, {"lat": 48.5818698, "nom": "Haute \u00e9cole des arts du Rhin (HEAR) - Strasbourg", "lng": 7.75885210000001}, {"lat": 45.7488366, "nom": "IAE Lyon - \u00c9cole universitaire de management", "lng": 4.86166809999997}, {"lat": 43.6060671, "nom": "IAE Toulouse", "lng": 1.43816719999995}, {"lat": 47.3832745, "nom": "IAE Tours", "lng": 0.689796600000022}, {"lat": 43.6026314, "nom": "INP-ENSEEIHT", "lng": 1.45506079999996}, {"lat": 45.8189719, "nom": "Institut d'Ing\u00e9nierie Informatique de Limoges (3Il)", "lng": 1.27132510000001}, {"lat": 48.1175611, "nom": "Institut de Gestion de Rennes", "lng": -1.66866970000001}, {"lat": 48.7819122, "nom": "Institut des Sciences et Techniques des Yvelines", "lng": 2.21769429999995}, {"lat": 45.751175, "nom": "Institut Fran\u00e7ais de M\u00e9canique Avanc\u00e9e", "lng": 3.11067800000001}, {"lat": 43.604652, "nom": "Institut National des Sciences Appliquees de Toulouse", "lng": 1.444209}, {"lat": 49.4599361, "nom": "Institut Polytechnique LaSalle Beauvais", "lng": 2.06783889999997}, {"lat": 45.7605872, "nom": "Institut Sup\u00e9rieur d\u2019Informatique, de Mod\u00e9lisation et de leurs Applications (ISIMA)", "lng": 3.10798580000005}, {"lat": 50.6340629, "nom": "Institut Sup\u00e9rieur de l'\u00c9lectronique et du Num\u00e9rique - Lille", "lng": 3.04887499999995}, {"lat": 43.1146883, "nom": "Institut Sup\u00e9rieur de l'\u00c9lectronique et du Num\u00e9rique - Toulon", "lng": 5.94889749999993}, {"lat": 48.0192152, "nom": "Institut Sup\u00e9rieur des Mat\u00e9riaux du Mans", "lng": 0.156613200000038}, {"lat": 47.7324408, "nom": "\u00c9cole Nationale Sup\u00e9rieure de Chimie de Mulhouse", "lng": 7.31208600000002}, {"lat": 48.6079516, "nom": "IUT Louis Pasteur", "lng": 7.71008189999998}, {"lat": 50.6107405, "nom": "IUT A de Lille", "lng": 3.13790940000001}, {"lat": 45.165133, "nom": "Polytech Grenoble", "lng": 5.76776100000006}, {"lat": 45.7584449, "nom": "Ecole Nationale Sup\u00e9rieure de Chimie de Clermont-Ferrand", "lng": 3.11303880000003}, {"lat": 44.8447426, "nom": "IUT Bordeaux Montesquieu", "lng": -0.557867200000032}, {"lat": 50.9492365, "nom": "IUT Calais-Boulogne", "lng": 1.88536180000006}, {"lat": 48.697161, "nom": "IUT d'Orsay", "lng": 2.189617}, {"lat": 43.6491369, "nom": "IUT de Blagnac", "lng": 1.37483520000001}, {"lat": 47.0986116, "nom": "IUT de Bourges", "lng": 2.41681740000001}, {"lat": 48.4004572, "nom": "IUT de Brest", "lng": -4.50439030000007}, {"lat": 49.2061569, "nom": "IUT de Caen", "lng": -0.382005700000036}, {"lat": 44.6088413, "nom": "IUT de Figeac", "lng": 2.013868}, {"lat": 48.7572861, "nom": "IUT de Lannion", "lng": -3.45157770000003}, {"lat": 48.085762, "nom": "IUT de Laval", "lng": -0.757058000000029}, {"lat": 48.9966739, "nom": "IUT de Mantes en Yvelines", "lng": 1.71098069999994}, {"lat": 48.862381, "nom": "IUT de Montreuil", "lng": 2.46440800000005}, {"lat": 47.7316519, "nom": "IUT de Mulhouse", "lng": 7.30002190000005}, {"lat": 43.817514, "nom": "IUT de N\u00eemes", "lng": 4.33114499999999}, {"lat": 47.979826, "nom": "IUT de Quimper", "lng": -4.09553400000004}, {"lat": 49.2408368, "nom": "IUT de Reims-Ch\u00e2lons-Charleville", "lng": 4.06437419999997}, {"lat": 48.1220646, "nom": "IUT de Rennes", "lng": -1.6288826}, {"lat": 46.044614, "nom": "IUT de Roanne", "lng": 4.07200109999997}, {"lat": 44.3601727, "nom": "IUT de Rodez", "lng": 2.57552559999999}, {"lat": 48.5122121, "nom": "IUT de Saint-Brieuc", "lng": -2.73924349999993}, {"lat": 45.423425, "nom": "IUT de Saint-Etienne", "lng": 4.43088999999998}, {"lat": 48.6244663, "nom": "T\u00e9l\u00e9com Ecole de Management", "lng": 2.44452230000002}, {"lat": 48.172402, "nom": "\u00c9cole nationale sup\u00e9rieure des technologies et industries du bois", "lng": 6.44940299999996}, {"lat": 45.8244963, "nom": "Institut d'administration des entreprises de Limoges", "lng": 1.26006729999995}, {"lat": 48.4069625, "nom": "Institut Sup\u00e9rieur de l'Electronique et du Num\u00e9rique - Brest", "lng": -4.49508209999999}, {"lat": 43.5657777, "nom": "IUT A Paul Sabatier", "lng": 1.45807990000003}, {"lat": 44.1860319, "nom": "IUT Agen", "lng": 0.623530699999947}, {"lat": 43.3465791, "nom": "IUT B\u00e9ziers", "lng": 3.22216260000005}, {"lat": 48.6761514, "nom": "\u00c9cole des Mines de Nancy", "lng": 6.16966920000004}, {"lat": 50.95255, "nom": "Ecole d'Ing\u00e9nieurs du Littoral C\u00f4te d'Opale", "lng": 1.87799949999999}, {"lat": 43.3410444, "nom": "Aix-Marseille Universit\u00e9", "lng": 5.41107490000002}, {"lat": 46.1401531, "nom": "Ecole d'Ing\u00e9nieurs en G\u00e9nie des Syst\u00e8mes Industriels (EIGSI)", "lng": -1.15433859999996}, {"lat": 47.280918, "nom": "Ecole des Mines de Nantes", "lng": -1.5199149}, {"lat": 48.6960723, "nom": "\u00c9cole europ\u00e9enne d'ing\u00e9nieurs en g\u00e9nie des mat\u00e9riaux", "lng": 6.19328189999999}, {"lat": 48.3599799, "nom": "Ecole Nationale d'Ing\u00e9nieurs de Brest", "lng": -4.56693059999998}, {"lat": 45.439695, "nom": "Ecole Nationale d'Ing\u00e9nieurs de Saint-Etienne", "lng": 4.38717789999998}, {"lat": 43.2251611, "nom": "Ecole Nationale d'Ing\u00e9nieurs de Tarbes", "lng": 0.0497365999999602}, {"lat": 48.6543335, "nom": "\u00c9cole nationale sup\u00e9rieure d'agronomie et des industries alimentaires", "lng": 6.13429880000001}, {"lat": 48.6543335, "nom": "\u00c9cole nationale sup\u00e9rieure d'\u00e9lectricit\u00e9 et de m\u00e9canique", "lng": 6.13429880000001}, {"lat": 44.8063124, "nom": "\u00c9cole nationale sup\u00e9rieure d'\u00e9lectronique, informatique, t\u00e9l\u00e9communications, math\u00e9matique et m\u00e9canique de Bordeaux", "lng": -0.606817599999999}, {"lat": 49.350198, "nom": "IUT de Thionville-Yutz", "lng": 6.17309799999998}, {"lat": 44.9156366, "nom": "IUT de Valence", "lng": 4.91508429999999}, {"lat": 47.644207, "nom": "IUT de Vannes", "lng": -2.77701400000001}, {"lat": 48.9561507, "nom": "IUT de Villetaneuse", "lng": 2.34126259999994}, {"lat": 43.2274837, "nom": "IUT de Tarbes", "lng": 0.0481028000000379}, {"lat": 47.4081977, "nom": "IUT de Tours", "lng": 0.702021800000011}, {"lat": 48.2837269, "nom": "IUT de Troyes", "lng": 4.078757}, {"lat": 42.309409, "nom": "IUT Di Corsica", "lng": 9.14902200000006}, {"lat": 45.83575, "nom": "IUT du Limousin", "lng": 1.22845910000001}, {"lat": 48.0156747, "nom": "IUT Le Mans", "lng": 0.152020499999935}, {"lat": 48.5303327, "nom": "IUT Robert Schuman", "lng": 7.73565710000003}, {"lat": 47.7518638, "nom": "Lyc\u00e9e Notre-Dame de la Paix", "lng": -3.3950274}, {"lat": 45.751175, "nom": "Polytech Clermont-Ferrand", "lng": 3.11067800000001}, {"lat": 50.6107405, "nom": "Polytech Lille", "lng": 3.13790940000001}, {"lat": 43.6320385, "nom": "Polytech Montpellier", "lng": 3.86035010000001}, {"lat": 47.2828202, "nom": "Polytech Nantes", "lng": -1.51575720000005}, {"lat": 43.6155724, "nom": "Polytech Nice-Sophia", "lng": 7.07171919999996}, {"lat": 47.8442611, "nom": "Polytech Orl\u00e9ans", "lng": 1.93895929999997}, {"lat": 48.7078825, "nom": "Polytech Paris Sud", "lng": 2.17607870000006}, {"lat": 48.8464111, "nom": "Polytech Paris-UPMC", "lng": 2.35484680000002}, {"lat": 47.3644598, "nom": "Polytech Tours", "lng": 0.683950600000003}, {"lat": 45.7567137, "nom": "Universit\u00e9 Catholique de Lyon", "lng": 4.82894639999995}, {"lat": 47.4770589, "nom": "Universit\u00e9 d'Angers", "lng": -0.54954470000007}, {"lat": 48.117266, "nom": "Universit\u00e9 de Rennes 1", "lng": -1.67779259999998}, {"lat": 49.4603066, "nom": "Universit\u00e9 de Rouen", "lng": 1.06736909999995}, {"lat": 48.7764214, "nom": "IUT de Sceaux", "lng": 2.28785459999995}, {"lat": 45.8355066, "nom": "Universit\u00e9 de Limoges", "lng": 1.24269939999999}, {"lat": 49.256002, "nom": "Universit\u00e9 de Reims Champagne-Ardenne", "lng": 4.04112570000007}, {"lat": 46.0682894, "nom": "Universit\u00e9 Jean Monnet, Saint-Etienne", "lng": 4.64948159999994}, {"lat": 45.7488366, "nom": "Universit\u00e9 Jean Moulin Lyon 3", "lng": 4.86166809999997}, {"lat": 48.8488889, "nom": "Universit\u00e9 Sorbonne Nouvelle Paris 3", "lng": 2.34311960000002}, {"lat": 43.5795225, "nom": "Universit\u00e9 Toulouse - Jean Jaur\u00e8s", "lng": 1.40322470000001}, {"lat": 45.8611977, "nom": "\u00c9cole Nationale Sup\u00e9rieure d'Ing\u00e9nieurs de Limoges", "lng": 1.29630900000006}, {"lat": 48.975907, "nom": "IUT de Tremblay-en-France", "lng": 2.55927120000001}, {"lat": 49.417816, "nom": "Universit\u00e9 de Technologie de Compi\u00e8gne", "lng": 2.826145}, {"lat": 48.8439739, "nom": "Universit\u00e9 Paris 13 - Paris Nord", "lng": 2.23334739999996}, {"lat": 48.8375563, "nom": "Universit\u00e9 Paris-Est Marne-la-Vall\u00e9e", "lng": 2.59343739999997}, {"lat": 48.697161, "nom": "Universit\u00e9 Paris-Sud", "lng": 2.189617}, {"lat": 43.6060671, "nom": "Universit\u00e9 Toulouse 1 Capitole", "lng": 1.43816719999995}, {"lat": 47.3140929, "nom": "Universit\u00e9 de Bourgogne", "lng": 5.06636779999997}]